{"type":"FeatureCollection","features":[{"type":"Feature","properties":{"id":1,"City":"San Leandro","Year_2010":255750,"Year_2011":242450,"Year_2012":202725,"Year_2013":307500,"Year_2014":382000,"Year_2015":393000,"Year_2016":466519,"Year_2017":457500,"Year_2018":495250},"geometry":{"type":"Point","coordinates":[-122.1585083,37.72826]}},{"type":"Feature","properties":{"id":2,"City":"San Francisco","Year_2010":655500,"Year_2011":638625,"Year_2012":624500,"Year_2013":750250,"Year_2014":937750,"Year_2015":942000,"Year_2016":1142250,"Year_2017":1148750,"Year_2018":1187500},"geometry":{"type":"Point","coordinates":[-122.4196396,37.7771187]}},{"type":"Feature","properties":{"id":3,"City":"Berkeley","Year_2010":488750,"Year_2011":420500,"Year_2012":305000,"Year_2013":521500,"Year_2014":563000,"Year_2015":609750,"Year_2016":731250,"Year_2017":915000,"Year_2018":900750},"geometry":{"type":"Point","coordinates":[-122.2705383,37.8698807]}},{"type":"Feature","properties":{"id":4,"City":"Oakland","Year_2010":215000,"Year_2011":197750,"Year_2012":183975,"Year_2013":334750,"Year_2014":323500,"Year_2015":400500,"Year_2016":542500,"Year_2017":560000,"Year_2018":602500},"geometry":{"type":"Point","coordinates":[-122.2730713,37.8050804]}},{"type":"Feature","properties":{"id":5,"City":"Los Angeles","Year_2010":255750,"Year_2011":235250,"Year_2012":192500,"Year_2013":308000,"Year_2014":325750,"Year_2015":367000,"Year_2016":438000,"Year_2017":464725,"Year_2018":508750},"geometry":{"type":"Point","coordinates":[-118.2453232,34.0534897]}},{"type":"Feature","properties":{"id":6,"City":"Long Beach","Year_2010":285000,"Year_2011":265000,"Year_2012":244000,"Year_2013":305000,"Year_2014":367500,"Year_2015":393000,"Year_2016":393000,"Year_2017":449375,"Year_2018":496250},"geometry":{"type":"Point","coordinates":[-118.1923981,33.7667198]}},{"type":"Feature","properties":{"id":7,"City":"San Diego","Year_2010":327500,"Year_2011":311250,"Year_2012":293750,"Year_2013":351250,"Year_2014":431750,"Year_2015":450250,"Year_2016":480000,"Year_2017":519625,"Year_2018":551500},"geometry":{"type":"Point","coordinates":[-117.1617126,32.7156792]}},{"type":"Feature","properties":{"id":8,"City":"Newport Beach","Year_2010":1047500,"Year_2011":972500,"Year_2012":839750,"Year_2013":1155000,"Year_2014":1346750,"Year_2015":1217000,"Year_2016":1426250,"Year_2017":1368500,"Year_2018":1921500},"geometry":{"type":"Point","coordinates":[-117.9303284,33.616951]}},{"type":"Feature","properties":{"id":9,"City":"Walnut Creek","Year_2010":472250,"Year_2011":397500,"Year_2012":378250,"Year_2013":465000,"Year_2014":565688,"Year_2015":623000,"Year_2016":665069,"Year_2017":737075,"Year_2018":781500},"geometry":{"type":"Point","coordinates":[-122.0616226,37.9011803]}},{"type":"Feature","properties":{"id":10,"City":"Martinez","Year_2010":274000,"Year_2011":247475,"Year_2012":249700,"Year_2013":280000,"Year_2014":446000,"Year_2015":398737,"Year_2016":441250,"Year_2017":553500,"Year_2018":543750},"geometry":{"type":"Point","coordinates":[-122.1349411,38.0139313]}},{"type":"Feature","properties":{"id":11,"City":"Lafayette","Year_2010":689044,"Year_2011":609000,"Year_2012":660000,"Year_2013":807500,"Year_2014":1020000,"Year_2015":1050000,"Year_2016":1318485,"Year_2017":1082250,"Year_2018":1197500},"geometry":{"type":"Point","coordinates":[-122.118,37.8858]}},{"type":"Feature","properties":{"id":12,"City":"San Ramon","Year_2010":625500,"Year_2011":594375,"Year_2012":492500,"Year_2013":588375,"Year_2014":614750,"Year_2015":695625,"Year_2016":827500,"Year_2017":812000,"Year_2018":929328},"geometry":{"type":"Point","coordinates":[-121.9690399,37.7794914]}},{"type":"Feature","properties":{"id":13,"City":"Sacramento","Year_2010":112135,"Year_2011":102500,"Year_2012":102400,"Year_2013":128000,"Year_2014":148000,"Year_2015":169000,"Year_2016":179885,"Year_2017":211225,"Year_2018":258250},"geometry":{"type":"Point","coordinates":[-121.4908981,38.5793304]}},{"type":"Feature","properties":{"id":14,"City":"Eureka","Year_2010":245000,"Year_2011":207000,"Year_2012":155734,"Year_2013":201000,"Year_2014":263000,"Year_2015":247000,"Year_2016":272000,"Year_2017":235000,"Year_2018":264363},"geometry":{"type":"Point","coordinates":[-124.1595306,40.8032684]}},{"type":"Feature","properties":{"id":15,"City":"Fresno","Year_2010":87250,"Year_2011":90000,"Year_2012":84806,"Year_2013":121250,"Year_2014":125725,"Year_2015":163863,"Year_2016":131038,"Year_2017":172000,"Year_2018":177000},"geometry":{"type":"Point","coordinates":[-119.785759,36.7406616]}},{"type":"Feature","properties":{"id":16,"City":"San Jose","Year_2010":475000,"Year_2011":460000,"Year_2012":343500,"Year_2013":486250,"Year_2014":536750,"Year_2015":602860,"Year_2016":654000,"Year_2017":705000,"Year_2018":886250},"geometry":{"type":"Point","coordinates":[-121.8854218,37.3386497]}},{"type":"Feature","properties":{"id":17,"City":"Mountain View","Year_2010":900000,"Year_2011":898000,"Year_2012":645000,"Year_2013":940475,"Year_2014":965000,"Year_2015":1102000,"Year_2016":1270000,"Year_2017":1375750,"Year_2018":1934400},"geometry":{"type":"Point","coordinates":[-122.0815964,37.3896713]}},{"type":"Feature","properties":{"id":18,"City":"Daly City","Year_2010":343750,"Year_2011":343000,"Year_2012":338250,"Year_2013":435000,"Year_2014":528500,"Year_2015":562500,"Year_2016":620500,"Year_2017":669000,"Year_2018":908000},"geometry":{"type":"Point","coordinates":[-122.4727936,37.6910896]}},{"type":"Feature","properties":{"id":19,"City":"San Mateo","Year_2010":634250,"Year_2011":563375,"Year_2012":526875,"Year_2013":641750,"Year_2014":785000,"Year_2015":988250,"Year_2016":1041250,"Year_2017":1040000,"Year_2018":1137500},"geometry":{"type":"Point","coordinates":[-122.3148499,37.547039]}},{"type":"Feature","properties":{"id":20,"City":"Fremont","Year_2010":418250,"Year_2011":387750,"Year_2012":362375,"Year_2013":457750,"Year_2014":546650,"Year_2015":628250,"Year_2016":724625,"Year_2017":758722,"Year_2018":953750},"geometry":{"type":"Point","coordinates":[-121.9821701,37.5509109]}}]}
